City_ID,City,Country,Lat,Lng,Max Temp,Humidity,Cloudiness,Wind Speed,Current Description
0,Puerto Ayora,EC,-0.7393,-90.3518,71.55,90,85,5.99,overcast clouds
1,Ushuaia,AR,-54.8,-68.3,53.26,50,40,13.8,scattered clouds
2,Carnarvon,AU,-24.8667,113.6333,102.27,8,3,14.97,clear sky
3,Khatanga,RU,71.9667,102.5,-19.97,92,67,4.63,broken clouds
4,Emerald,AU,-23.5333,148.1667,82.35,50,100,12.5,overcast clouds
5,Rocha,UY,-34.4833,-54.3333,63.32,73,0,8.84,clear sky
6,Iqaluit,CA,63.7506,-68.5145,11.93,66,90,5.99,overcast clouds
7,Ketchikan,US,55.3422,-131.6461,28.87,74,1,9.22,clear sky
8,Jamestown,US,42.097,-79.2353,34.09,95,90,3.0,snow
9,Punta Arenas,CL,-53.15,-70.9167,55.51,58,90,8.05,light rain
10,Saint-Francois,FR,46.4154,3.9054,51.48,93,90,4.61,moderate rain
11,Leningradskiy,RU,69.3833,178.4167,-24.72,97,100,3.44,overcast clouds
12,Hermanus,ZA,-34.4187,19.2345,58.89,78,92,4.41,overcast clouds
13,Port Elizabeth,ZA,-33.918,25.5701,65.1,88,0,3.44,clear sky
14,Liberty,US,31.8335,-81.5004,66.31,85,20,3.0,few clouds
15,Cherskiy,RU,68.75,161.3,-45.99,99,100,3.02,overcast clouds
16,Szarvas,HU,46.8667,20.55,34.14,94,100,6.46,snow
17,Rikitea,PF,-23.1203,-134.9692,78.76,75,41,10.54,scattered clouds
18,Airai,TL,-8.9266,125.4092,71.73,66,59,3.42,broken clouds
19,Atuona,PF,-9.8,-139.0333,78.87,74,6,19.06,clear sky
20,Nikolskoye,RU,59.7035,30.7861,22.39,84,100,8.97,overcast clouds
21,Belyy Yar,RU,53.6039,91.3903,-0.15,94,40,2.24,smoke
22,Smithers,CA,54.7804,-127.1743,-9.08,84,20,3.44,few clouds
23,Aklavik,CA,68.2191,-135.0107,-15.77,100,89,4.63,overcast clouds
24,Tuktoyaktuk,CA,69.4541,-133.0374,-20.2,76,1,10.36,clear sky
25,Ilulissat,GL,69.2167,-51.1,-2.06,70,97,5.59,overcast clouds
26,Saskylakh,RU,71.9167,114.0833,-29.72,100,66,4.7,broken clouds
27,Nandyal,IN,15.4833,78.4833,63.86,91,4,3.65,clear sky
28,Vaini,TO,-21.2,-175.2,87.96,66,75,10.36,volcanic ash
29,Havre-Saint-Pierre,CA,50.2334,-63.5986,30.2,93,90,5.75,light snow
30,Camacha,PT,33.0833,-16.3333,63.36,77,75,12.66,broken clouds
31,Yellowknife,CA,62.456,-114.3525,-33.72,87,100,3.0,overcast clouds
32,Ila,NO,63.4305,10.3705,32.95,87,95,4.36,overcast clouds
33,Bambous Virieux,MU,-20.3428,57.7575,78.22,78,40,11.5,light rain
34,Yar-Sale,RU,66.8333,70.8333,-2.29,98,100,7.47,overcast clouds
35,Clyde River,CA,70.4692,-68.5914,-21.77,76,27,0.0,scattered clouds
36,Vestmanna,FO,62.1564,-7.1664,34.72,93,75,0.0,broken clouds
37,Upernavik,GL,72.7868,-56.1549,-3.08,92,73,3.58,broken clouds
38,Ponta Delgada,PT,37.7333,-25.6667,68.5,88,75,24.16,broken clouds
39,Torbay,CA,47.6666,-52.7314,33.76,94,90,23.02,light snow
40,Mataura,NZ,-46.1927,168.8643,59.49,56,100,6.91,overcast clouds
41,Kukuna,SL,9.4,-12.6667,70.12,37,5,2.01,clear sky
42,Myre,NO,69.1036,15.9492,22.95,63,99,9.55,overcast clouds
43,Lahij,YE,13.1667,44.5833,64.72,86,88,5.21,overcast clouds
44,Port Hedland,AU,-20.3167,118.5667,104.05,15,51,21.85,broken clouds
45,Impfondo,CG,1.6381,18.0667,69.62,97,46,2.55,scattered clouds
46,Caluquembe,AO,-13.7833,14.6833,58.14,91,96,2.44,overcast clouds
47,Saldanha,ZA,-33.0117,17.9442,59.05,80,42,6.42,scattered clouds
48,Avarua,CK,-21.2078,-159.775,80.65,74,75,17.27,moderate rain
49,Butaritari,KI,3.0707,172.7902,81.81,75,73,7.74,light rain
50,Saint George,US,37.1041,-113.5841,42.44,67,90,1.01,overcast clouds
51,Senanga,ZM,-16.1167,23.2667,65.73,88,97,6.33,overcast clouds
52,Lodja,CD,-3.4833,23.4333,67.23,94,100,0.2,overcast clouds
53,Te Anau,NZ,-45.4167,167.7167,60.87,51,31,3.36,scattered clouds
54,Tapes,BR,-30.6733,-51.3958,68.95,68,0,10.87,clear sky
55,Hilo,US,19.7297,-155.09,78.53,38,20,5.75,few clouds
56,Manali,IN,13.1667,80.2667,75.29,92,19,5.01,few clouds
57,Nyurba,RU,63.2842,118.3319,-36.29,100,53,2.95,broken clouds
58,Katubao,PH,5.8892,124.8294,83.01,68,94,1.63,overcast clouds
59,Gamboma,CG,-1.8764,15.8644,70.72,92,100,1.48,overcast clouds
60,Mahebourg,MU,-20.4081,57.7,78.26,78,40,11.5,light rain
61,Port Alfred,ZA,-33.5906,26.891,64.56,84,98,6.33,overcast clouds
62,Kavieng,PG,-2.5744,150.7967,84.36,68,66,3.11,broken clouds
63,Albany,US,42.6001,-73.9662,37.74,75,100,1.05,overcast clouds
64,East London,ZA,-33.0153,27.9116,64.62,80,49,6.13,scattered clouds
65,Faanui,PF,-16.4833,-151.75,81.1,73,100,12.71,moderate rain
66,Korla,CN,41.7597,86.1469,15.82,76,18,2.98,few clouds
67,Hobart,AU,-42.8794,147.3294,80.02,52,75,4.0,broken clouds
68,Dingle,PH,10.9995,122.6711,77.63,86,100,15.37,light rain
69,Chuy,UY,-33.6971,-53.4616,65.61,77,0,8.81,light rain
70,Bredasdorp,ZA,-34.5322,20.0403,60.12,77,100,4.61,overcast clouds
71,Codrington,AU,-38.2667,141.9667,67.98,53,0,12.35,clear sky
72,Uyemskiy,RU,64.4743,40.8524,8.65,92,90,4.47,overcast clouds
73,Cayenne,GF,4.9333,-52.3333,75.24,92,75,3.44,light rain
74,Yulara,AU,-25.2406,130.9889,89.44,8,7,19.57,clear sky
75,Vestmannaeyjar,IS,63.4427,-20.2734,32.7,67,7,11.23,clear sky
76,Tokmak,UA,47.2514,35.7058,33.89,94,100,10.07,overcast clouds
77,Margate,GB,51.3813,1.3862,49.03,79,100,1.01,overcast clouds
78,Risor,NO,58.7206,9.2342,26.29,82,100,8.28,overcast clouds
79,Barrow,US,71.2906,-156.7887,-23.78,76,1,8.05,clear sky
80,San Vicente,AR,-26.6167,-54.1333,72.14,28,96,3.4,overcast clouds
81,Yerbogachen,RU,61.2767,108.0108,-23.44,98,91,2.59,overcast clouds
82,Ngama,TD,11.7833,17.1667,69.26,22,94,11.27,overcast clouds
83,Kaitangata,NZ,-46.2817,169.8464,57.92,64,71,5.95,broken clouds
84,Muroto,JP,33.2833,134.15,44.64,61,58,7.54,broken clouds
85,Tiksi,RU,71.6872,128.8694,-17.88,100,100,4.09,overcast clouds
86,Dohar,BD,23.5883,90.1469,66.18,57,45,4.76,scattered clouds
87,Vardo,NO,70.3705,31.1107,20.88,86,48,11.43,scattered clouds
88,Souillac,MU,-20.5167,57.5167,78.37,78,40,11.5,scattered clouds
89,Muros,ES,42.7762,-9.0603,62.85,92,100,13.67,overcast clouds
90,Luderitz,NA,-26.6481,15.1594,62.17,79,0,7.52,clear sky
91,Buin,CL,-33.7333,-70.75,75.74,68,0,4.52,clear sky
92,Placido De Castro,BR,-10.3353,-67.1856,74.93,92,58,3.04,broken clouds
93,Praia Da Vitoria,PT,38.7333,-27.0667,62.85,100,75,23.24,broken clouds
94,Paka,MY,4.6374,103.4368,76.93,94,40,2.3,scattered clouds
95,Saint-Philippe,RE,-21.3585,55.7679,76.59,85,100,15.12,light rain
96,Sola,VU,-13.8833,167.55,82.92,77,94,10.51,overcast clouds
97,Banyo,CM,6.75,11.8167,67.78,34,99,2.95,overcast clouds
98,Paysandu,UY,-32.3214,-58.0756,90.61,19,100,9.91,overcast clouds
99,Chokurdakh,RU,70.6333,147.9167,-46.1,100,90,2.13,overcast clouds
100,Thinadhoo,MV,0.5333,72.9333,81.34,75,70,12.64,broken clouds
101,Prainha,BR,-1.8,-53.48,72.54,92,99,2.98,overcast clouds
102,Teberda,RU,43.4456,41.7448,29.8,79,100,6.46,overcast clouds
103,Kavaratti,IN,10.5669,72.642,80.11,74,33,10.71,scattered clouds
104,Dikson,RU,73.5069,80.5464,3.2,88,100,14.14,overcast clouds
105,Veraval,IN,20.9,70.3667,65.25,75,0,12.48,clear sky
106,Independence,US,39.0911,-94.4155,45.88,60,1,1.99,clear sky
107,Lata,PT,40.1629,-8.3327,59.81,94,100,3.36,overcast clouds
108,Lorengau,PG,-2.0226,147.2712,83.98,73,100,4.9,overcast clouds
109,Nanortalik,GL,60.1432,-45.2371,22.93,66,0,4.76,clear sky
110,Dharchula,IN,29.85,80.5333,44.35,88,100,0.72,overcast clouds
111,Cape Town,ZA,-33.9258,18.4232,62.11,80,75,1.01,broken clouds
112,Norman Wells,CA,65.282,-126.8329,-29.16,68,40,2.3,scattered clouds
113,Namibe,AO,-15.1961,12.1522,69.06,67,80,8.57,broken clouds
114,Saint-Augustin,CA,51.226,-58.6502,16.39,93,26,6.98,scattered clouds
115,Deputatskiy,RU,69.3,139.9,-35.21,100,80,2.04,broken clouds
116,Bilma,NE,18.6853,12.9164,59.94,22,0,11.7,clear sky
117,Roanoke Rapids,US,36.4615,-77.6542,63.21,100,1,5.75,clear sky
118,Atar,MR,20.5169,-13.0499,69.96,19,0,7.34,clear sky
119,Qaanaaq,GL,77.484,-69.3632,-3.21,51,22,6.13,few clouds
120,Lagoa,PT,39.05,-27.9833,61.09,83,100,19.44,overcast clouds
121,Sinnamary,GF,5.3833,-52.95,76.84,91,100,8.77,overcast clouds
122,Puerto Carreno,CO,6.189,-67.4859,83.16,56,100,13.47,overcast clouds
123,Provideniya,RU,64.3833,-173.3,9.07,95,100,7.9,snow
124,Leh,IN,34.1667,77.5833,-5.01,67,21,4.12,few clouds
125,Alibag,IN,18.6411,72.8792,71.67,67,0,10.85,clear sky
126,Hithadhoo,MV,-0.6,73.0833,82.13,73,95,13.67,overcast clouds
127,Tura,IN,25.5198,90.2201,58.8,62,100,4.0,light rain
128,Emmett,US,43.8735,-116.4993,27.77,72,100,5.01,overcast clouds
129,Cockburn Town,TC,21.4612,-71.1419,78.93,77,45,19.3,scattered clouds
130,Newport,GB,51.5877,-2.9984,49.44,92,100,7.43,overcast clouds
131,Kashi,CN,39.4547,75.9797,18.61,67,0,6.71,clear sky
132,Axim,GH,4.8699,-2.2405,79.59,83,100,5.46,overcast clouds
133,Taltal,CL,-25.4,-70.4833,67.32,77,2,6.98,clear sky
134,Salaga,GH,8.5508,-0.5188,79.81,20,99,4.72,overcast clouds
135,Dzialdowo,PL,53.2396,20.17,24.57,94,100,16.73,overcast clouds
136,Brae,GB,60.3964,-1.353,44.51,87,100,6.82,overcast clouds
137,Pevek,RU,69.7008,170.3133,-29.25,96,100,2.13,overcast clouds
138,Bluff,NZ,-46.6,168.3333,60.8,64,100,14.2,overcast clouds
139,Ios,GR,36.7333,25.2833,62.06,66,99,5.99,overcast clouds
140,Snezhnogorsk,RU,69.1933,33.2531,-0.22,100,96,8.93,overcast clouds
141,Meiganga,CM,6.5167,14.3,66.33,33,92,4.54,overcast clouds
142,Grass Valley,US,39.2191,-121.0611,38.26,93,90,0.0,overcast clouds
143,Kedrovyy,RU,56.1667,91.8167,9.01,93,100,4.47,overcast clouds
144,Dalvik,IS,65.9702,-18.5286,26.53,90,100,14.43,light snow
145,Kapaa,US,22.0752,-159.319,78.78,76,40,3.0,light rain
146,Lasa,IT,46.6166,10.7002,40.08,87,83,6.02,broken clouds
147,Dickinson,US,29.4608,-95.0513,77.27,91,90,1.01,overcast clouds
148,Mandera,KE,3.9366,41.867,77.27,28,39,7.96,scattered clouds
149,Matay,EG,28.419,30.7792,52.63,68,6,5.68,clear sky
150,Macae,BR,-22.3708,-41.7869,75.07,100,75,1.14,broken clouds
151,Saint-Pierre,RE,-21.3393,55.4781,76.68,80,75,21.85,broken clouds
152,Mar Del Plata,AR,-38.0023,-57.5575,69.82,100,40,3.0,mist
153,Havelock,US,34.8791,-76.9013,64.38,94,1,5.99,clear sky
154,Arraial Do Cabo,BR,-22.9661,-42.0278,75.16,94,40,4.61,scattered clouds
155,Vao,NC,-22.6667,167.4833,78.73,82,77,8.59,broken clouds
156,Bathsheba,BB,13.2167,-59.5167,79.41,73,20,11.5,few clouds
157,Waddan,LY,29.1614,16.139,56.35,58,0,6.67,clear sky
158,Kolokani,ML,13.5728,-8.0339,67.12,17,5,9.22,clear sky
159,Busselton,AU,-33.65,115.3333,88.05,31,0,2.93,clear sky
160,Ifanadiana,MG,-21.3,47.6333,70.88,99,100,1.07,light rain
161,Grindavik,IS,63.8424,-22.4338,30.67,74,75,31.07,broken clouds
162,Torbat-E Jam,IR,35.244,60.6225,34.81,33,0,1.88,clear sky
163,Jumla,NP,29.2747,82.1838,33.58,97,100,2.37,moderate rain
164,Sukhumi,GE,43.0033,41.0153,47.98,67,100,3.69,overcast clouds
165,Shieli,KZ,44.1667,66.75,20.17,78,37,2.55,scattered clouds
166,Talnakh,RU,69.4865,88.3972,4.21,92,100,7.63,overcast clouds
167,Nome,US,64.5011,-165.4064,33.87,86,90,26.46,light rain
168,Touros,BR,-5.1989,-35.4608,81.5,78,78,12.44,broken clouds
169,Geraldton,AU,-28.7667,114.6,99.01,12,0,8.05,clear sky
170,Ganzhou,CN,28.8184,115.4327,44.85,71,56,1.36,broken clouds
171,Xichang,CN,27.8964,102.2634,42.6,74,3,1.12,clear sky
172,Pisco,PE,-13.7,-76.2167,69.85,88,75,9.22,broken clouds
173,Kochubey,RU,44.3861,46.5825,40.1,92,97,12.12,overcast clouds
174,Palauig,PH,15.435,119.9045,80.65,57,61,3.04,broken clouds
175,Comodoro Rivadavia,AR,-45.8667,-67.5,64.26,52,0,6.91,clear sky
176,Energetik,RU,51.7445,58.7934,-12.42,99,6,4.83,clear sky
177,Ambanja,MG,-13.6833,48.45,75.42,92,77,3.24,broken clouds
178,Tessalit,ML,20.1986,1.0114,64.33,21,94,8.59,overcast clouds
179,Monrovia,LR,6.3005,-10.7969,79.83,79,83,6.76,broken clouds
180,Tasiilaq,GL,65.6145,-37.6368,6.96,68,9,5.06,clear sky
181,Ostrovnoy,RU,68.0531,39.5131,1.11,94,19,11.79,few clouds
182,Vysokogornyy,RU,50.1167,139.15,-11.13,90,93,1.61,overcast clouds
183,Bose,IT,45.4612,8.0137,46.2,89,13,1.79,few clouds
184,Taoudenni,ML,22.6783,-3.9836,67.39,24,100,9.6,overcast clouds
185,Ribeira Grande,PT,38.5167,-28.7,62.22,80,100,25.14,overcast clouds
186,Kaminskiy,RU,57.1516,41.4732,-7.49,100,100,5.21,overcast clouds
187,Raudeberg,NO,61.9875,5.1352,39.87,81,100,11.01,overcast clouds
188,Bassano,CA,50.7834,-112.4685,1.63,89,100,13.22,overcast clouds
189,Nhulunbuy,AU,-12.2333,136.7667,86.61,66,100,17.27,overcast clouds
190,Klyuchi,RU,52.2667,79.1667,16.66,75,100,11.63,overcast clouds
191,Kruisfontein,ZA,-34.0033,24.7314,62.89,90,100,5.75,overcast clouds
192,Hanmer Springs,NZ,-42.5167,172.8167,63.84,55,89,4.7,overcast clouds
193,Omboue,GA,-1.5746,9.2618,75.99,92,100,4.94,moderate rain
194,La Ronge,CA,55.1001,-105.2842,-25.35,68,1,0.0,clear sky
195,Antofagasta,CL,-23.65,-70.4,67.28,79,53,6.85,broken clouds
196,Guerrero Negro,MX,27.9769,-114.0611,58.42,62,99,7.99,overcast clouds
197,Pangnirtung,CA,66.1451,-65.7125,-2.38,71,70,4.74,broken clouds
198,Kodiak,US,57.79,-152.4072,38.91,73,92,4.41,overcast clouds
199,Severo-Kurilsk,RU,50.6789,156.125,29.93,75,100,27.4,overcast clouds
200,Price,US,39.5994,-110.8107,24.12,79,20,5.75,few clouds
201,San Quintin,MX,30.4833,-115.95,57.13,69,69,10.96,broken clouds
202,Alice Springs,AU,-23.7,133.8833,89.15,11,0,14.97,clear sky
203,Dhidhdhoo,MV,6.8833,73.1,80.44,62,51,8.79,broken clouds
204,Luba,GQ,3.4568,8.5547,75.09,78,100,5.91,light rain
205,Flin Flon,CA,54.7682,-101.865,-17.95,99,77,2.08,broken clouds
206,Bengkulu,ID,-3.8004,102.2655,76.53,86,100,4.07,overcast clouds
207,Shelburne,CA,44.0787,-80.2041,30.09,86,100,1.83,overcast clouds
208,Katsuura,JP,35.1333,140.3,41.14,59,96,6.49,overcast clouds
209,Torres,BR,-29.3353,-49.7269,71.83,88,47,5.59,scattered clouds
210,New Norfolk,AU,-42.7826,147.0587,79.66,22,14,5.01,few clouds
211,Mahibadhoo,MV,3.7833,72.9667,81.82,68,62,15.84,broken clouds
212,Viedma,AR,-40.8135,-62.9967,70.23,60,100,17.9,overcast clouds
213,Hukay,PH,13.8452,120.7029,78.94,74,100,20.49,overcast clouds
214,Poum,NC,-20.2333,164.0167,81.82,78,98,6.29,overcast clouds
215,Ures,MX,29.4333,-110.4,60.28,43,98,7.58,overcast clouds
216,Dhanwar,IN,24.4167,85.9833,57.22,92,100,14.72,overcast clouds
217,Vila Velha,BR,-20.3297,-40.2925,78.94,89,20,7.0,few clouds
218,Mogadishu,SO,2.0371,45.3438,75.9,78,57,16.93,broken clouds
219,Hasaki,JP,35.7333,140.8333,43.09,46,79,2.21,broken clouds
220,Livadiya,RU,42.8692,132.6764,23.0,76,8,8.19,clear sky
221,Georgetown,MY,5.4112,100.3354,82.33,73,20,3.44,few clouds
222,Jertih,MY,5.7336,102.4897,80.47,90,75,2.21,broken clouds
223,Krasnoyarskiy,RU,51.965,59.8967,-15.34,100,5,4.29,clear sky
224,Quang Ngai,VN,15.1167,108.8,72.23,91,91,5.95,overcast clouds
225,Singaraja,ID,-8.112,115.0882,84.25,69,23,1.32,few clouds
226,Ossora,RU,59.2353,163.0719,5.27,94,100,11.3,light snow
227,Yatou,CN,37.15,122.3833,32.74,58,2,9.69,clear sky
228,Lebu,CL,-37.6167,-73.65,56.55,89,19,6.85,few clouds
229,Samarai,PG,-10.6167,150.6667,86.5,71,97,13.49,overcast clouds
230,Concarneau,FR,47.875,-3.9225,57.81,97,100,19.24,overcast clouds
231,Khandagayty,RU,50.7333,92.05,-10.91,98,99,2.77,overcast clouds
232,Omsukchan,RU,62.5333,155.8,-24.65,98,100,7.99,light snow
233,Muzaffarabad,PK,34.37,73.4711,40.62,44,0,6.89,clear sky
234,Jabinyanah,TN,35.035,10.9081,57.78,66,6,7.83,clear sky
235,Salumbar,IN,24.1333,74.05,58.48,92,0,5.59,clear sky
236,Ambulu,ID,-8.345,113.6058,82.04,76,24,3.51,few clouds
237,San Juan,AR,-31.5375,-68.5364,85.82,29,12,17.31,few clouds
238,Usinsk,RU,65.9939,57.5281,-7.64,98,100,13.33,overcast clouds
239,George Town,MY,5.4112,100.3354,82.33,77,20,0.0,few clouds
240,Charters Towers,AU,-20.1,146.2667,73.33,84,100,9.86,moderate rain
241,Port Lincoln,AU,-34.7333,135.8667,69.78,63,0,14.23,clear sky
242,Tual,ID,-5.6667,132.75,82.98,76,100,19.75,overcast clouds
243,Narsaq,GL,60.9167,-46.05,19.62,54,0,7.02,clear sky
244,Port Augusta,AU,-32.5,137.7667,91.71,26,0,7.74,clear sky
245,Sokode,TG,8.9833,1.1333,73.81,24,79,3.02,broken clouds
246,Wawa,NG,9.9022,4.4192,74.41,28,32,4.5,scattered clouds
247,Anadyr,RU,64.75,177.4833,0.1,77,75,25.99,light snow
248,Bima,ID,-8.4667,118.7167,84.38,74,16,1.03,few clouds
249,Auki,SB,-8.7676,160.7034,85.64,70,81,7.02,broken clouds
250,Huanren,CN,41.2647,125.3667,19.49,87,100,4.38,overcast clouds
251,Pachino,IT,36.7186,15.0907,44.64,71,6,12.71,clear sky
252,Ulaangom,MN,49.9811,92.0667,-17.14,94,95,2.75,overcast clouds
253,Magadan,RU,59.5667,150.8,-8.5,76,100,10.69,overcast clouds
254,Sitka,US,57.0531,-135.33,30.09,80,1,5.75,clear sky
255,Copiapo,CL,-27.3667,-70.3333,69.4,59,0,4.21,clear sky
256,Palu,ID,-0.8917,119.8707,83.52,72,87,0.85,overcast clouds
257,Westport,US,41.1415,-73.3579,46.22,72,90,5.01,overcast clouds
258,Ponta Do Sol,PT,32.6667,-17.1,66.83,84,31,9.35,scattered clouds
259,Constitucion,CL,-35.3333,-72.4167,60.19,89,83,5.32,broken clouds
260,Aksu,CN,41.1231,80.2644,19.26,77,97,2.53,overcast clouds
261,Oyama,JP,36.3,139.8,42.69,39,45,1.5,scattered clouds
262,Grand Bank,CA,47.0999,-55.765,32.99,77,7,15.23,clear sky
263,Kadoshkino,RU,54.0257,44.4191,-7.06,100,100,4.52,overcast clouds
264,San Cristobal,VE,7.7669,-72.225,69.98,93,100,1.05,overcast clouds
265,Balkhash,KZ,46.844,74.9804,18.21,93,90,11.18,overcast clouds
266,Victoria,HK,22.2855,114.1577,66.94,77,100,4.0,overcast clouds
267,Bethel,US,41.3712,-73.414,43.48,78,100,3.83,overcast clouds
268,Coihaique,CL,-45.5752,-72.0662,66.15,48,100,2.3,overcast clouds
269,Alofi,NU,-19.0595,-169.9187,76.89,94,54,2.3,light rain
270,Sechura,PE,-5.5569,-80.8222,71.01,76,89,14.9,overcast clouds
271,Hun,LY,29.1268,15.9477,56.23,57,0,6.38,clear sky
272,Fairbanks,US,64.8378,-147.7164,21.09,91,90,8.05,light snow
273,Tashla,RU,51.7716,52.7427,-15.52,100,99,2.35,overcast clouds
274,Mantua,IT,45.1667,10.7833,44.73,92,100,3.0,overcast clouds
275,San Patricio,US,28.017,-97.5169,75.06,79,3,10.31,clear sky
276,Marsaxlokk,MT,35.8419,14.5431,60.08,88,40,18.41,scattered clouds
277,Nioro,GM,13.35,-15.75,76.21,15,6,2.55,clear sky
278,Laurel,US,39.0993,-76.8483,55.06,56,90,1.01,overcast clouds
279,Constantine,DZ,36.365,6.6147,51.21,76,20,10.36,few clouds
280,Mahabad,IR,36.7631,45.7222,29.59,76,100,3.27,overcast clouds
281,Castro,BR,-24.7911,-50.0119,61.74,93,99,9.08,overcast clouds
282,Lubumbashi,CD,-11.6609,27.4794,64.56,78,87,5.82,overcast clouds
283,Yanam,IN,16.7333,82.2167,72.0,90,21,3.47,few clouds
284,Saint-Joseph,RE,-21.3667,55.6167,75.58,82,100,14.36,light rain
285,Azare,NG,11.6765,10.1948,64.06,16,73,8.86,broken clouds
286,Valera,VE,9.3178,-70.6036,71.47,90,100,3.89,overcast clouds
287,Gemena,CD,3.25,19.7667,69.75,98,100,1.81,overcast clouds
288,Naantali,FI,60.4674,22.0243,28.11,94,100,14.72,light snow
289,Champerico,GT,14.3,-91.9167,82.35,69,0,6.89,clear sky
290,Kolchugino,RU,56.3,39.3833,-4.54,100,100,3.83,overcast clouds
291,Statesboro,US,32.4488,-81.7832,68.31,77,1,3.44,clear sky
292,Parry Sound,CA,45.3501,-80.033,32.05,80,100,3.6,overcast clouds
293,Puerto Del Rosario,ES,28.5004,-13.8627,65.95,82,0,9.22,clear sky
294,Nuuk,GL,64.1835,-51.7216,4.77,80,16,5.95,few clouds
295,Paamiut,GL,61.994,-49.6678,14.11,68,3,6.38,clear sky
296,Asau,RO,46.4333,26.4,24.96,96,100,1.97,overcast clouds
297,Doha,QA,25.2867,51.5333,64.38,77,0,2.3,clear sky
298,Qaqortoq,GL,60.7167,-46.0333,19.9,60,0,5.95,clear sky
299,Mashhad,IR,36.297,59.6062,28.54,46,0,4.61,clear sky
300,Bonthe,SL,7.5264,-12.505,79.66,79,88,4.68,overcast clouds
301,Almaznyy,RU,48.0448,40.045,28.54,97,100,14.97,light snow
302,Sambava,MG,-14.2667,50.1667,74.16,81,100,3.0,overcast clouds
303,Longyearbyen,SJ,78.2186,15.6401,6.64,72,0,9.22,clear sky
304,Padang,ID,-0.9492,100.3543,80.65,80,100,3.33,overcast clouds
305,Kieta,PG,-6.2167,155.6333,86.32,68,89,6.2,overcast clouds
306,Cidreira,BR,-30.1811,-50.2056,70.95,70,0,11.54,clear sky
307,Noyabrsk,RU,63.1994,75.4507,-2.31,96,100,9.84,overcast clouds
308,Hof,DE,50.3167,11.9167,43.45,70,90,14.97,overcast clouds
309,Dolinsk,RU,47.35,142.8,6.66,75,60,3.56,broken clouds
310,Nyagan,RU,62.1406,65.3936,-10.59,97,96,4.72,overcast clouds
311,Cabo San Lucas,MX,22.8909,-109.9124,76.3,74,20,7.0,few clouds
312,Kamenka,RU,51.3223,42.7678,8.74,91,100,11.23,overcast clouds
313,Lavrentiya,RU,65.5833,-171.0,4.08,92,100,26.89,snow
314,Nueva Gerona,CU,21.8833,-82.8,74.93,75,0,10.27,clear sky
315,Guayaramerin,BO,-10.8368,-65.3614,74.19,92,100,2.89,overcast clouds
316,Wajid,SO,3.8093,43.2471,72.21,39,13,13.87,few clouds
317,Ferrol,ES,43.4832,-8.2369,63.68,83,100,16.8,overcast clouds
318,Port Macquarie,AU,-31.4333,152.9167,71.56,61,70,8.81,broken clouds
319,Port Hawkesbury,CA,45.6169,-61.3485,32.59,97,90,1.99,overcast clouds
320,Gambela,ET,8.25,34.5833,77.9,70,100,4.18,light rain
321,Sochi,RU,43.6,39.7303,42.89,71,100,7.61,overcast clouds
322,Rawson,AR,-43.3002,-65.1023,72.99,45,95,20.22,overcast clouds
323,Seredka,RU,58.1584,28.1858,15.55,79,100,12.77,overcast clouds
324,Kudirkos Naumiestis,LT,54.7731,22.8631,20.48,80,99,14.92,overcast clouds
325,Hami,CN,42.8,93.45,18.05,41,11,3.78,few clouds
326,Sept-Iles,CA,50.2001,-66.3821,30.63,84,90,3.0,light snow
327,Vallenar,CL,-28.5708,-70.7581,68.9,59,0,4.18,clear sky
328,Gallup,US,35.5281,-108.7426,31.84,82,90,1.99,light snow
329,Teguise,ES,29.0605,-13.564,61.02,88,75,9.22,broken clouds
330,Antsohihy,MG,-14.8796,47.9875,75.72,93,100,2.95,overcast clouds
331,Hervey Bay,AU,-25.2986,152.8535,80.71,64,100,21.92,overcast clouds
332,Albury,AU,-36.0833,146.9167,80.33,53,98,3.44,overcast clouds
333,College,US,64.8569,-147.8028,22.66,92,90,4.61,light snow
334,Coquimbo,CL,-29.9533,-71.3436,64.13,72,0,6.91,clear sky
335,Fort-Shevchenko,KZ,44.5086,50.263,37.29,71,65,12.48,broken clouds
336,Kinshasa,CD,-4.3246,15.3215,77.38,83,20,1.14,light rain
337,Lensk,RU,60.7253,114.9278,-9.38,98,100,5.41,overcast clouds
338,Qasigiannguit,GL,68.8193,-51.1922,1.98,74,99,4.61,overcast clouds
339,Marienburg,PL,54.0359,19.0266,27.88,89,99,14.27,overcast clouds
340,Kununurra,AU,-15.7667,128.7333,91.38,52,77,6.91,broken clouds
341,Salto,UY,-31.3833,-57.9667,83.88,39,100,3.0,overcast clouds
342,Adrar,MR,20.5022,-10.0711,65.08,23,5,9.51,clear sky
343,Port Blair,IN,11.6667,92.75,80.64,78,20,15.97,mist
344,Klaksvik,FO,62.2266,-6.589,34.72,80,97,10.83,light rain
345,Saint-Georges,GD,12.0564,-61.7485,78.48,78,40,11.5,scattered clouds
346,Pontecorvo,IT,41.4616,13.6667,56.08,81,63,1.95,broken clouds
347,Ancud,CL,-41.8697,-73.8203,63.93,89,38,5.79,scattered clouds
348,Porto Velho,BR,-8.7619,-63.9039,77.05,94,0,0.0,clear sky
349,Beringovskiy,RU,63.05,179.3167,-4.02,89,100,13.47,overcast clouds
350,Necochea,AR,-38.5473,-58.7368,66.04,95,86,11.43,overcast clouds
351,Los Llanos De Aridane,ES,28.6585,-17.9182,60.55,77,75,6.91,broken clouds
352,Ternate,ID,0.8,127.4,81.34,76,100,6.04,overcast clouds
353,Alice,US,27.7523,-98.0697,74.32,73,1,8.05,clear sky
354,Bandarbeyla,SO,9.4942,50.8122,74.21,70,67,11.56,broken clouds
355,Raga,SS,8.4596,25.678,72.77,22,94,5.73,overcast clouds
356,Gornopravdinsk,RU,60.05,69.9,-11.67,100,99,5.01,overcast clouds
357,Tateyama,JP,34.9833,139.8667,50.27,55,68,9.22,broken clouds
358,Tanout,NE,14.9709,8.8879,59.04,22,90,12.1,overcast clouds
359,Esperance,AU,-33.8667,121.9,73.24,52,0,10.36,clear sky
360,Peniche,PT,39.3558,-9.3811,62.11,96,100,9.01,overcast clouds
361,Bryan,US,30.6744,-96.37,73.02,82,1,0.0,clear sky
362,Antalaha,MG,-14.9003,50.2788,73.62,84,45,3.53,scattered clouds
363,Makakilo City,US,21.3469,-158.0858,77.32,61,1,11.5,clear sky
364,Lima,PE,-12.0432,-77.0282,72.9,79,75,10.36,broken clouds
365,Richards Bay,ZA,-28.783,32.0377,66.67,88,2,3.44,clear sky
366,Vila Franca Do Campo,PT,37.7167,-25.4333,68.2,92,100,31.56,overcast clouds
367,Chizhou,CN,30.6578,117.4831,45.91,56,1,4.29,clear sky
368,Ardakan,IR,32.31,54.0175,37.78,41,100,0.38,overcast clouds
369,Srednekolymsk,RU,67.45,153.6833,-30.14,98,100,6.06,overcast clouds
370,Walvis Bay,NA,-22.9575,14.5053,63.09,88,0,1.14,clear sky
371,Namatanai,PG,-3.6667,152.4333,83.77,74,83,5.97,light rain
372,Mount Gambier,AU,-37.8333,140.7667,71.51,49,0,10.36,clear sky
373,Key West,US,24.5557,-81.7826,77.0,71,1,14.97,clear sky
374,Sovetskiy,RU,61.3614,63.5842,-4.2,95,95,5.03,overcast clouds
375,Benicarlo,ES,40.4165,0.4271,61.9,52,0,9.51,clear sky
376,Zabaykalsk,RU,49.6333,117.3167,-5.57,97,49,8.77,scattered clouds
377,Coaticook,CA,45.1334,-71.7991,30.81,96,100,1.92,overcast clouds
378,Puerto Quijarro,BO,-17.7833,-57.7667,78.8,75,9,2.62,clear sky
379,Maceio,BR,-9.6658,-35.7353,76.44,88,40,3.44,scattered clouds
380,Pacific Grove,US,36.6177,-121.9166,51.1,82,99,1.99,overcast clouds
381,Bontang,ID,0.1333,117.5,81.84,71,100,3.42,overcast clouds
382,Ziyang,CN,29.2497,117.8547,45.91,60,65,2.98,broken clouds
383,Chekhov,RU,55.1431,37.4711,14.23,98,100,3.91,overcast clouds
384,Port Hardy,CA,50.6996,-127.4199,30.2,86,75,4.61,broken clouds
385,Luz,BR,-19.8014,-45.6856,67.17,94,27,4.68,light rain
386,Kipushi,CD,-11.7667,27.2333,61.74,87,55,6.69,broken clouds
387,Calabazar De Sagua,CU,22.6447,-79.8961,70.27,94,1,5.75,clear sky
388,Wanaka,NZ,-44.7,169.15,60.55,61,89,2.39,overcast clouds
389,Khandyga,RU,62.6667,135.6,-49.18,97,83,1.1,broken clouds
390,Komsomolskiy,UZ,40.4272,71.7189,23.72,80,100,6.91,mist
391,Gao,ML,16.6362,1.637,63.52,18,53,11.99,broken clouds
392,Yumen,CN,40.2833,97.2,16.68,44,7,9.51,clear sky
393,Melo,UY,-32.3667,-54.1833,64.54,59,0,9.35,clear sky
394,Sur,OM,22.5667,59.5289,70.81,71,100,1.16,overcast clouds
395,Talara,PE,-4.5772,-81.2719,70.56,78,40,16.11,scattered clouds
396,Laguna,US,38.421,-121.4238,47.05,75,90,1.99,overcast clouds
397,Stornoway,GB,58.2093,-6.3865,42.76,95,75,12.66,light rain
398,Madang,PG,-5.2246,145.7966,85.78,70,100,4.12,overcast clouds
399,Loknya,RU,56.83,30.1467,11.05,89,100,6.13,overcast clouds
400,Coahuayana,MX,18.7333,-103.6833,76.48,85,35,1.23,scattered clouds
401,Sorong,ID,-0.8833,131.25,82.17,70,100,6.51,overcast clouds
402,Lodwar,KE,3.1191,35.5973,79.2,49,79,4.27,broken clouds
403,Katakwi,UG,1.8911,33.9661,69.96,68,100,3.89,overcast clouds
404,Parabel,RU,58.6978,81.4825,8.62,96,100,7.27,overcast clouds
405,North Platte,US,41.1239,-100.7654,22.24,60,1,4.61,clear sky
406,Karpathos,GR,35.507,27.2132,62.56,72,99,25.32,overcast clouds
407,Ulladulla,AU,-35.35,150.4667,75.78,55,57,9.24,broken clouds
408,Port-Gentil,GA,-0.7193,8.7815,78.03,87,100,12.53,moderate rain
409,Nouadhibou,MR,20.931,-17.0347,69.78,68,0,13.8,clear sky
410,Eyl,SO,7.9803,49.8164,71.17,76,11,11.14,few clouds
411,Neyshabur,IR,36.2133,58.7958,37.62,25,21,1.12,few clouds
412,Lucapa,AO,-8.4192,20.7447,64.08,97,100,1.81,overcast clouds
413,Labuhan,ID,-6.8844,112.2051,80.8,78,100,7.61,overcast clouds
414,Flinders,AU,-34.5833,150.8552,74.37,63,55,1.99,broken clouds
415,Kaffrine,SN,14.1059,-15.5508,74.46,13,2,8.25,clear sky
416,Jambi,ID,-1.6,103.6167,78.51,88,100,3.53,overcast clouds
417,Port Keats,AU,-14.25,129.55,88.68,68,70,14.83,broken clouds
418,Santa Maria,BR,-29.6842,-53.8069,74.5,60,0,13.8,clear sky
419,Kiria,GR,41.1,24.2833,51.48,90,100,2.82,overcast clouds
420,Fallon,US,39.4735,-118.7774,32.41,79,75,0.0,shower rain
421,Pokosnoye,RU,55.5258,101.0536,-0.9,98,100,1.57,overcast clouds
422,Khani,GE,41.9563,42.9566,27.97,74,97,8.37,overcast clouds
423,Srandakan,ID,-7.9386,110.2506,82.56,72,95,6.35,overcast clouds
424,Mbandaka,CD,0.0487,18.2603,70.32,92,100,3.74,overcast clouds
425,Manacapuru,BR,-3.2997,-60.6206,77.58,92,84,4.81,broken clouds
426,Nemuro,JP,43.3236,145.575,23.43,58,4,8.19,clear sky
427,Ishigaki,JP,24.3448,124.1572,68.13,88,75,8.05,broken clouds
428,Bara,NG,10.3744,10.7288,65.61,20,43,7.07,scattered clouds
429,Bafoulabe,ML,13.8065,-10.8321,76.78,13,5,6.42,clear sky
430,Yelizovo,RU,53.1873,158.3805,15.94,72,0,7.0,clear sky
431,Benjamin Hill,MX,30.1667,-111.1,55.17,56,100,9.19,overcast clouds
432,Abu Samrah,SY,35.3029,37.1841,42.8,69,15,5.08,few clouds
433,Tihuatlan,MX,20.7167,-97.5333,79.32,69,1,5.75,clear sky
434,Miles City,US,46.4083,-105.8406,3.51,77,1,6.91,clear sky
435,Mehamn,NO,71.0357,27.8492,14.25,85,45,9.26,scattered clouds
436,Valdivia,CL,-39.8142,-73.2459,69.89,88,0,1.77,clear sky
437,Broome,US,42.2506,-75.833,36.01,79,90,1.99,snow
438,Mazagao,BR,-0.115,-51.2894,82.45,93,31,3.8,scattered clouds
439,Madrid,ES,40.4165,-3.7026,50.22,95,0,1.01,fog
440,Beloha,MG,-25.1667,45.05,74.19,71,78,4.45,broken clouds
441,Mafinga,TZ,-7.25,35.0667,65.28,93,100,3.13,light rain
442,U Thong,TH,14.3751,99.8923,74.16,64,100,10.56,overcast clouds
443,Yura,PE,-16.2522,-71.6797,55.92,54,40,2.3,scattered clouds
444,Nambale,KE,0.4459,34.2519,66.45,77,81,5.32,broken clouds
445,Evans,US,33.5337,-82.1307,70.03,70,56,4.0,broken clouds
446,Itoman,JP,26.1247,127.6694,70.57,73,75,12.66,broken clouds
447,Nantucket,US,41.2835,-70.0995,42.96,75,100,19.44,overcast clouds
448,Ishikari,JP,43.2397,141.3539,26.67,63,20,10.36,few clouds
449,Buchanan,LR,5.8808,-10.0467,78.76,82,74,4.72,broken clouds
450,Scottsbluff,US,41.8666,-103.6672,25.92,42,75,1.99,broken clouds
451,El Sauzal,MX,31.9,-116.6833,51.42,85,100,7.76,overcast clouds
452,Barentu,ER,15.1139,37.5928,64.58,85,86,4.7,overcast clouds
453,Shubarshi,KZ,48.5872,57.1869,3.54,79,84,8.63,broken clouds
454,Cascais,PT,38.6979,-9.4215,62.47,85,100,8.01,overcast clouds
455,Mascote,BR,-15.5631,-39.3025,71.92,99,100,1.61,light rain
456,Riyadh,SA,24.6877,46.7219,55.54,34,100,1.57,overcast clouds
457,Abasha,GE,42.2096,42.2211,35.82,71,100,6.4,overcast clouds
458,Nikko,JP,36.75,139.6167,33.94,56,8,5.03,clear sky
459,Rio Grande,BR,-32.035,-52.0986,68.23,73,0,10.83,clear sky
460,Batagay-Alyta,RU,67.8006,130.4114,-29.9,94,82,6.04,broken clouds
461,Waipawa,NZ,-41.4122,175.5153,65.44,63,82,7.02,broken clouds
462,Zhigansk,RU,66.7697,123.3711,-41.66,100,61,4.99,broken clouds
463,Blieskastel,DE,49.2372,7.2562,48.88,86,90,12.66,overcast clouds
464,Calama,CL,-22.4667,-68.9333,61.16,33,0,5.26,clear sky
465,Grand Gaube,MU,-20.0064,57.6608,78.39,77,96,8.01,light rain
466,Tabou,CI,4.423,-7.3528,78.87,84,75,6.98,light rain
467,Saint Anthony,US,45.0205,-93.218,24.64,90,90,1.99,mist
468,Martil,MA,35.6166,-5.2752,62.56,77,37,16.11,scattered clouds
469,Tortona,IT,44.8978,8.8637,52.66,70,87,3.71,overcast clouds
470,San Carlos De Bariloche,AR,-41.1456,-71.3082,71.35,30,0,10.36,clear sky
471,Nadvoitsy,RU,63.8667,34.3167,17.85,93,100,8.46,overcast clouds
472,Saint-Louis,SN,16.3333,-15.0,73.9,12,0,9.86,clear sky
473,Paragominas,BR,-2.9667,-47.4833,74.71,92,100,2.44,overcast clouds
474,Thompson,CA,55.7435,-97.8558,-7.44,77,90,5.75,light snow
475,Goderich,CA,43.7501,-81.7165,32.92,86,100,5.75,light snow
476,Tsuruoka,JP,38.7217,139.8217,33.84,80,75,14.97,broken clouds
477,Bandiagara,ML,14.3501,-3.6104,69.33,14,97,8.41,overcast clouds
478,Sao Joao Da Barra,BR,-21.6403,-41.0511,74.46,93,100,6.87,moderate rain
479,Karambakkudi,IN,10.4667,79.1333,72.0,87,96,5.7,overcast clouds
480,Aksarka,RU,66.5606,67.7975,-8.27,99,100,1.99,overcast clouds
481,Aykhal,RU,66.0,111.5,-26.32,100,89,6.04,overcast clouds
482,Haines Junction,CA,60.7522,-137.5108,4.95,85,81,0.0,broken clouds
483,Timra,SE,62.487,17.3257,22.71,100,40,2.3,mist
484,Havoysund,NO,70.9963,24.6622,14.88,83,99,9.73,overcast clouds
485,Port Hueneme,US,34.1478,-119.1951,54.54,74,1,12.66,clear sky
486,Nhlangano,SZ,-27.1167,31.2,59.54,89,85,2.04,overcast clouds
487,Santiago,CL,-33.4569,-70.6483,74.86,55,20,12.66,few clouds
488,Oranjemund,NA,-28.55,16.4333,62.82,94,28,5.68,scattered clouds
489,Venado Tuerto,AR,-33.7456,-61.9688,82.81,19,65,3.74,broken clouds
490,Eydhafushi,MV,5.1033,73.0708,82.35,61,8,15.46,clear sky
491,Mamburao,PH,13.25,120.6667,81.63,63,88,6.6,overcast clouds
492,Jawhar,SO,2.7809,45.5005,69.49,84,66,10.09,broken clouds
493,Cardston,CA,49.2,-113.3019,0.46,78,100,4.61,light snow
494,Alta Floresta,BR,-9.8756,-56.0861,70.99,98,100,3.18,overcast clouds
495,Elizabeth City,US,36.2946,-76.2511,55.02,86,20,4.61,few clouds
496,Bubaque,GW,11.2833,-15.8333,79.84,74,8,7.34,clear sky
497,Poronaysk,RU,49.2167,143.1167,-6.0,93,54,5.14,broken clouds
498,Kungurtug,RU,50.5994,97.5228,-11.34,97,34,1.21,scattered clouds
499,San Diego De Los Banos,CU,22.6467,-83.3697,67.66,94,3,4.74,light rain
500,Maun,BW,-19.9833,23.4167,72.99,63,56,7.81,broken clouds
501,Linxia,CN,35.6003,103.2064,19.85,69,72,1.57,broken clouds
502,Madimba,TZ,-10.4,40.3333,79.86,81,95,6.06,overcast clouds
503,Beaupre,CA,47.0443,-70.8953,23.81,86,75,3.44,broken clouds
504,Lazaro Cardenas,MX,17.9583,-102.2,75.76,79,0,0.38,clear sky
505,New Glasgow,CA,45.5834,-62.6486,31.1,80,100,2.66,overcast clouds
506,Buraydah,SA,26.326,43.975,54.05,90,100,11.9,overcast clouds
507,Shenjiamen,CN,29.9576,122.298,46.22,57,100,16.15,overcast clouds
508,Zunyi,CN,27.6867,106.9072,38.05,83,100,3.31,overcast clouds
509,Careiro Da Varzea,BR,-3.2003,-59.8119,81.21,94,77,3.83,broken clouds
510,Bac Lieu,VN,9.285,105.7244,81.72,70,26,21.72,scattered clouds
511,Half Moon Bay,US,37.4636,-122.4286,49.53,88,90,1.01,overcast clouds
512,Olutanga,PH,7.3106,122.8464,81.23,74,84,6.93,broken clouds
513,Burnie,AU,-41.0667,145.9167,67.91,59,100,9.89,overcast clouds
514,Kandrian,PG,-6.2167,149.55,88.66,61,99,5.59,overcast clouds
515,Acapulco,MX,16.8634,-99.8901,80.42,74,20,3.44,few clouds
516,Camacupa,AO,-12.0167,17.4833,57.56,95,28,1.39,scattered clouds
517,Terra Santa,BR,-2.1042,-56.4869,76.77,90,100,2.37,overcast clouds
518,Martapura,ID,-3.4167,114.85,83.7,75,100,1.99,overcast clouds
519,Lukovetskiy,RU,64.2956,41.9211,8.58,99,100,2.95,overcast clouds
520,Byron Bay,AU,-28.65,153.6167,80.19,59,26,13.73,scattered clouds
521,Prince Rupert,CA,54.3161,-130.3201,26.29,90,1,3.44,clear sky
522,Rosarito,MX,32.3333,-117.0333,54.19,74,100,10.09,overcast clouds
523,Faya,SA,18.3851,42.4509,50.11,57,42,1.43,scattered clouds
524,Dongsheng,CN,39.8161,109.9776,12.16,42,0,11.3,clear sky
525,Hatton,LK,6.8916,80.5955,59.88,64,92,3.02,overcast clouds
526,Kuytun,RU,54.3419,101.5036,4.32,97,100,1.34,light snow
527,Yangmei,CN,24.1023,112.5618,51.96,78,99,3.15,overcast clouds
528,Tuatapere,NZ,-46.1333,167.6833,59.83,65,91,10.11,overcast clouds
529,San Jose,US,37.3394,-121.895,49.48,81,75,6.91,broken clouds
530,Lere,NG,10.387,8.5726,62.6,23,3,5.03,clear sky
531,Lompoc,US,34.6391,-120.4579,52.41,78,75,6.91,broken clouds
532,Kidal,ML,18.4411,1.4078,63.59,21,27,10.04,scattered clouds
533,Sandnessjoen,NO,66.0217,12.6316,21.18,64,78,3.0,broken clouds
534,Guarizama,HN,14.9167,-86.3333,65.52,86,11,2.26,few clouds
535,Moose Factory,CA,51.2585,-80.6094,3.2,78,90,2.3,light snow
536,Mayor Pablo Lagerenza,PY,-19.9309,-60.7718,81.46,63,84,1.86,broken clouds
537,Husavik,IS,66.0449,-17.3389,26.51,80,100,15.88,overcast clouds
538,Mahon,ES,39.8885,4.2658,59.56,77,0,9.22,clear sky
539,Mikhaylovka,RU,50.06,43.2379,13.78,94,100,16.26,overcast clouds
540,Voyvozh,RU,62.892,54.9635,-7.51,97,94,6.78,overcast clouds
541,Skjervoy,NO,70.0311,20.9714,23.14,67,100,9.89,overcast clouds
542,Wageningen,NL,51.9667,5.6667,48.94,95,90,10.36,drizzle
543,Zhoucheng,CN,35.9122,116.3117,35.02,32,0,10.38,clear sky
544,Hurghada,EG,27.2574,33.8129,57.24,62,0,8.05,clear sky
545,Puerto Colombia,CO,10.9878,-74.9547,80.69,81,99,23.62,overcast clouds
546,Popondetta,PG,-8.7537,148.2534,91.15,54,100,5.41,overcast clouds
547,Moss Vale,AU,-34.55,150.3833,66.33,39,12,5.23,few clouds
548,Walla Walla,US,46.0646,-118.343,21.27,84,90,0.0,overcast clouds
549,Shahe,CN,39.2708,113.5478,17.19,45,0,9.04,clear sky
550,Severnyy,RU,50.677,36.5532,17.64,86,90,22.37,light snow
551,Camana,PE,-16.6228,-72.7111,70.2,84,83,4.61,broken clouds
552,Ixtapa,MX,20.7,-105.2,76.23,78,90,5.75,overcast clouds
553,Acara,BR,-1.9608,-48.1967,74.14,97,90,2.66,overcast clouds
554,Hamilton,US,39.1834,-84.5333,53.78,96,90,1.01,moderate rain
555,Singaparna,ID,-7.3515,108.111,73.53,90,100,2.13,overcast clouds
556,Terrace,CA,54.5163,-128.6035,8.42,66,75,21.85,broken clouds
557,Itupiranga,BR,-5.1347,-49.3267,73.92,97,98,3.15,overcast clouds
558,Armidale,AU,-30.5167,151.65,64.81,51,61,8.37,broken clouds
559,Bom Jardim,BR,-7.7958,-35.5872,72.27,82,94,6.46,overcast clouds
560,Pochutla,MX,15.7432,-96.4661,77.85,80,0,4.88,clear sky
561,Hofn,IS,64.2539,-15.2082,33.39,85,100,32.93,snow
562,Fortuna,US,40.5982,-124.1573,45.66,92,40,8.99,scattered clouds
563,Moron,AR,-34.6534,-58.6198,88.02,54,100,1.01,overcast clouds
564,Mitu,CO,1.1983,-70.1733,75.97,78,100,2.84,overcast clouds
565,Kloulklubed,PW,7.0419,134.2556,84.7,80,100,18.54,overcast clouds
566,Agadez,NE,19.75,10.25,57.52,25,3,7.47,clear sky
567,Sabha,LY,27.0377,14.4283,54.63,54,0,9.19,clear sky
568,Heihe,CN,50.2441,127.4902,-13.61,77,17,9.06,few clouds
569,Namanyere,TZ,-7.5167,31.05,60.15,94,99,3.31,light rain
570,Baherden,TM,38.4362,57.4316,39.51,49,0,0.67,clear sky
571,Sao Filipe,CV,14.8961,-24.4956,75.67,69,11,4.94,few clouds
572,Kanniyakumari,IN,8.0833,77.5667,76.42,79,67,17.56,broken clouds
573,Vanavara,RU,60.34,102.2797,-30.6,100,13,1.59,few clouds
574,Yeppoon,AU,-23.1333,150.7333,80.38,71,100,22.75,overcast clouds
575,Praia,CV,14.9215,-23.5087,70.34,83,0,9.22,clear sky
576,Arosa,CH,46.7779,9.6762,29.21,99,100,3.0,light snow
577,Conakry,GN,9.538,-13.6773,69.37,63,5,1.7,clear sky
578,Homer,US,59.6425,-151.5483,45.77,89,90,8.05,overcast clouds
579,Sidrolandia,BR,-20.9319,-54.9614,81.39,54,88,5.21,overcast clouds
580,Beaumont,US,30.0861,-94.1019,74.23,97,75,5.75,mist
581,Nizwa,OM,22.9333,57.5333,62.17,92,92,2.08,overcast clouds
582,Mitsamiouli,KM,-11.3847,43.2844,80.67,78,100,7.9,overcast clouds
583,Mocuba,MZ,-16.8392,36.9856,78.48,63,99,3.42,overcast clouds
584,Saint-Maximin-La-Sainte-Baume,FR,43.4521,5.8622,59.13,83,95,22.03,overcast clouds
585,San Policarpo,PH,12.1791,125.5072,79.16,82,100,20.96,very heavy rain
586,Biak,ID,-0.9131,122.8766,83.82,61,79,0.67,broken clouds
587,Teya,RU,60.3778,92.6267,5.49,97,100,3.18,overcast clouds
588,Brawley,US,32.9787,-115.5303,57.49,51,1,20.71,clear sky
589,Opole Lubelskie,PL,51.1478,21.969,26.8,90,100,12.77,overcast clouds
590,Barra Patuca,HN,15.8,-84.2833,77.18,83,15,10.56,few clouds
591,Huarmey,PE,-10.0681,-78.1522,70.23,85,100,5.37,overcast clouds
592,Kahului,US,20.8947,-156.47,78.82,74,40,21.85,scattered clouds
593,Beira,MZ,-19.8436,34.8389,80.69,100,40,4.61,scattered clouds
594,Lehigh Acres,US,26.6254,-81.6248,71.62,80,40,0.0,scattered clouds
595,Orlik,RU,52.5178,99.825,-3.12,96,84,3.22,broken clouds
596,Vila Do Maio,CV,15.1333,-23.2167,70.59,72,1,10.85,clear sky
597,Hanstholm,DK,57.1167,8.6167,32.76,92,100,9.73,overcast clouds
598,Hatillo,PR,18.4863,-66.8254,77.07,86,15,1.99,few clouds
599,Zacualpan,MX,21.25,-105.1667,78.42,83,76,4.03,broken clouds
600,San Andres,CO,12.5847,-81.7006,82.42,69,20,8.05,few clouds
601,Verkhnyaya Sysert,RU,56.4372,60.75,-0.09,86,17,13.11,few clouds
602,Hangu,CN,39.2489,117.7892,32.04,22,0,14.0,clear sky
603,Pithiviers,FR,48.1667,2.25,50.16,86,100,9.84,overcast clouds
604,Andenes,NO,69.3143,16.1194,24.78,86,100,10.36,overcast clouds
605,Bay Roberts,CA,47.5999,-53.2648,34.52,87,91,4.0,overcast clouds
606,Sidi Ali,DZ,36.0998,0.4206,53.62,87,0,6.98,clear sky
607,Isangel,VU,-19.55,169.2667,86.43,70,100,7.45,heavy intensity rain
608,Belen,TR,36.4891,36.2233,28.54,100,90,3.44,fog
609,Zeya,RU,53.75,127.2667,-15.54,63,17,2.91,few clouds
610,Goma,CD,-1.6792,29.2228,60.13,90,20,3.11,few clouds
611,Smolenka,RU,52.1352,113.4974,3.27,72,98,6.71,overcast clouds
612,Muisne,EC,0.6,-80.0333,76.1,87,89,8.05,overcast clouds
613,Zelenoborsk,RU,61.4669,64.0333,-7.01,96,90,4.72,overcast clouds
614,Bud,US,39.447,-86.1758,49.32,97,92,9.37,overcast clouds
615,Shwebo,MM,22.5667,95.7,64.33,68,0,5.3,clear sky
616,Foshan,CN,23.0268,113.1315,57.09,66,100,5.91,overcast clouds
617,Lakhnau,IN,26.85,80.9167,58.98,94,90,2.3,overcast clouds
618,Torrevieja,ES,37.9787,-0.6822,64.24,59,1,12.86,clear sky
619,Ust-Tsilma,RU,65.441,52.1498,2.12,94,100,9.57,overcast clouds
620,Bereda,ES,43.2686,-7.5406,59.41,91,100,8.32,overcast clouds
621,Mana,GF,5.6592,-53.7767,76.82,91,100,7.74,overcast clouds
622,Tsiroanomandidy,MG,-18.7667,46.0333,69.44,90,100,1.45,overcast clouds
623,Balikpapan,ID,-1.2675,116.8289,79.79,83,20,4.61,light rain
624,Warri,NG,5.5167,5.75,77.07,84,99,2.04,overcast clouds
625,Bam,IR,29.106,58.357,48.31,33,100,3.4,overcast clouds
626,Pasni,PK,25.2631,63.471,67.95,71,49,8.7,scattered clouds
627,Panama City,PA,8.9936,-79.5197,79.38,79,20,6.91,few clouds
628,Oistins,BB,13.0667,-59.5333,78.89,73,20,11.5,few clouds
629,Shimoda,JP,34.6667,138.95,53.71,57,38,12.73,scattered clouds
630,Pittsburg,US,38.028,-121.8847,49.03,76,90,4.0,overcast clouds
631,Stein,DE,49.4167,11.0167,47.21,88,75,17.27,light rain
632,Kautokeino,NO,69.0125,23.0412,-15.68,100,100,1.25,overcast clouds
633,Lixourion,GR,38.2019,20.4314,55.53,86,39,2.75,scattered clouds
634,Jarvenpaa,FI,60.4737,25.0899,25.45,74,75,17.27,broken clouds
635,Jibuti,DJ,11.5,42.5,72.82,68,96,15.73,overcast clouds
636,Muana,BR,-1.5283,-49.2167,76.24,94,99,4.14,overcast clouds
637,Itarema,BR,-2.9248,-39.9167,80.76,78,28,14.36,scattered clouds
638,Marathon,US,44.9,-89.7668,24.33,90,90,9.22,snow
639,Monte Santo,BR,-10.4378,-39.3328,71.01,81,100,7.7,overcast clouds
640,Posse,BR,-14.0931,-46.3694,67.08,96,100,3.4,light rain
641,Sinop,TR,41.7711,34.8709,39.67,78,40,12.46,scattered clouds
642,Mufumbwe,ZM,-13.6833,24.8,60.22,96,27,1.19,scattered clouds
643,Roma,US,43.2128,-75.4557,35.96,86,90,3.44,light snow
644,Kerman,IR,30.2832,57.0788,28.26,46,0,0.0,clear sky
645,Kodinar,IN,20.7903,70.7031,63.52,79,0,11.56,clear sky
646,Saint Paul,US,44.9444,-93.0933,23.83,91,40,1.01,mist
647,Rondonopolis,BR,-16.4708,-54.6356,76.51,82,35,3.27,scattered clouds
648,Tuy Hoa,VN,13.0833,109.3,75.65,89,76,11.21,broken clouds
649,Dangriga,BZ,16.9692,-88.2321,78.98,84,6,8.12,clear sky
650,Isagarh,IN,24.8333,77.8833,51.15,95,87,5.77,overcast clouds
651,General Roca,AR,-39.0333,-67.5833,88.2,21,100,13.6,overcast clouds
652,Hobyo,SO,5.3505,48.5268,75.83,67,52,13.53,broken clouds
653,Krasnoselkup,RU,65.7,82.4667,-0.78,98,97,8.95,overcast clouds
654,Ouadda,CF,8.0777,22.4007,73.08,31,100,4.16,overcast clouds
655,Henties Bay,NA,-22.116,14.2845,62.85,90,3,3.58,clear sky
656,Hlubocky,CZ,49.6178,17.3944,35.33,97,100,7.61,overcast clouds
657,Dobroye,RU,52.8678,39.8109,8.71,94,100,8.01,overcast clouds
658,Hovd,MN,48.0056,91.6419,-0.9,79,5,2.75,clear sky
659,Acuitzio,MX,20.345,-101.9771,60.57,59,5,4.7,clear sky
660,Progreso,MX,21.2833,-89.6667,81.1,59,0,11.86,clear sky
661,Correntina,BR,-13.3433,-44.6367,69.08,96,100,3.91,overcast clouds
662,Esmeraldas,BR,-19.7625,-44.3139,70.66,95,99,0.65,moderate rain
663,Kyrksaeterora,NO,63.2906,9.0891,34.45,68,100,6.17,overcast clouds
664,Gizo,SB,-8.103,156.8419,84.33,74,92,5.5,moderate rain
665,Barcelona,ES,41.3888,2.159,63.81,69,0,1.99,clear sky
666,Noumea,NC,-22.2763,166.4572,82.0,99,99,8.34,light rain
667,Baoding,CN,38.8511,115.4903,33.46,21,0,3.87,clear sky
668,Gondanglegi,ID,-7.7479,112.0132,84.15,68,100,5.35,overcast clouds
669,Mayo,US,38.8876,-76.5119,54.86,66,90,1.01,overcast clouds
670,Altay,CN,47.8667,88.1167,9.18,55,6,7.18,clear sky
